[
  { "code": "11", "name": "서울특별시", "short": "서울", "type": "특별시", "position_name": "서울특별시장", "population": 9413567, "latitude": 37.5665, "longitude": 126.9780 },
  { "code": "21", "name": "부산광역시", "short": "부산", "type": "광역시", "position_name": "부산광역시장", "population": 3342249, "latitude": 35.1796, "longitude": 129.0756 },
  { "code": "22", "name": "대구광역시", "short": "대구", "type": "광역시", "position_name": "대구광역시장", "population": 2385412, "latitude": 35.8714, "longitude": 128.6014 },
  { "code": "23", "name": "인천광역시", "short": "인천", "type": "광역시", "position_name": "인천광역시장", "population": 2979884, "latitude": 37.4563, "longitude": 126.7052 },
  { "code": "24", "name": "광주광역시", "short": "광주", "type": "광역시", "position_name": "광주광역시장", "population": 1441910, "latitude": 35.1595, "longitude": 126.8526 },
  { "code": "25", "name": "대전광역시", "short": "대전", "type": "광역시", "position_name": "대전광역시장", "population": 1452251, "latitude": 36.3504, "longitude": 127.3845 },
  { "code": "26", "name": "울산광역시", "short": "울산", "type": "광역시", "position_name": "울산광역시장", "population": 1128198, "latitude": 35.5384, "longitude": 129.3114 },
  { "code": "29", "name": "세종특별자치시", "short": "세종", "type": "특별자치시", "position_name": "세종특별자치시장", "population": 387083, "latitude": 36.4800, "longitude": 127.2890 },
  { "code": "31", "name": "경기도", "short": "경기", "type": "도", "position_name": "경기도지사", "population": 13589432, "latitude": 37.4138, "longitude": 127.5183 },
  { "code": "32", "name": "강원특별자치도", "short": "강원", "type": "특별자치도", "position_name": "강원특별자치도지사", "population": 1523429, "latitude": 37.8228, "longitude": 128.1555 },
  { "code": "33", "name": "충청북도", "short": "충북", "type": "도", "position_name": "충청북도지사", "population": 1597054, "latitude": 36.8000, "longitude": 127.7000 },
  { "code": "34", "name": "충청남도", "short": "충남", "type": "도", "position_name": "충청남도지사", "population": 2119023, "latitude": 36.5184, "longitude": 126.8000 },
  { "code": "35", "name": "전북특별자치도", "short": "전북", "type": "특별자치도", "position_name": "전북특별자치도지사", "population": 1804104, "latitude": 35.7175, "longitude": 127.1530 },
  { "code": "36", "name": "전라남도", "short": "전남", "type": "도", "position_name": "전라남도지사", "population": 1835736, "latitude": 34.8679, "longitude": 126.9910 },
  { "code": "37", "name": "경상북도", "short": "경북", "type": "도", "position_name": "경상북도지사", "population": 2573979, "latitude": 36.4919, "longitude": 128.8889 },
  { "code": "38", "name": "경상남도", "short": "경남", "type": "도", "position_name": "경상남도지사", "population": 3310941, "latitude": 35.4606, "longitude": 128.2132 },
  { "code": "39", "name": "제주특별자치도", "short": "제주", "type": "특별자치도", "position_name": "제주특별자치도지사", "population": 672948, "latitude": 33.4996, "longitude": 126.5312 }
]
